City_ID,City,Country,Lat,Lng,Max Temp,Humidity,Cloudiness,Wind Speed,Current Description
0,Clyde River,CA,70.4692,-68.5914,5.11,92,86,2.17,overcast clouds
1,Ndele,CF,8.4109,20.6473,81.55,42,90,3.49,overcast clouds
2,Rorvik,NO,64.8621,11.2373,33.91,75,75,20.71,broken clouds
3,Okhotsk,RU,59.3833,143.3,15.21,93,93,6.8,overcast clouds
4,Louis Trichardt,ZA,-23.0439,29.9032,61.3,92,94,13.91,overcast clouds
5,Bredasdorp,ZA,-34.5322,20.0403,59.43,70,43,16.4,scattered clouds
6,Punta Arenas,CL,-53.15,-70.9167,48.22,76,0,10.36,clear sky
7,Banda Aceh,ID,5.5577,95.3222,79.5,79,77,4.18,broken clouds
8,Narsaq,GL,60.9167,-46.05,35.82,78,43,3.8,scattered clouds
9,Luderitz,NA,-26.6481,15.1594,63.64,62,0,12.64,clear sky
10,Salalah,OM,17.0151,54.0924,80.69,83,0,2.3,clear sky
11,Flin Flon,CA,54.7682,-101.865,41.61,66,100,12.84,overcast clouds
12,Mus,TR,39.0,41.75,36.39,100,100,2.01,overcast clouds
13,East London,ZA,-33.0153,27.9116,62.22,77,100,8.25,light rain
14,Alugan,PH,12.2188,125.4808,75.85,83,100,13.47,heavy intensity rain
15,Port Alfred,ZA,-33.5906,26.891,58.17,93,98,11.52,light rain
16,Guozhen,CN,34.3659,107.359,61.88,62,0,4.56,clear sky
17,Oistins,BB,13.0667,-59.5333,82.49,61,20,17.27,few clouds
18,Hilo,US,19.7297,-155.09,76.24,89,100,8.05,light rain
19,Pyapon,MM,16.2833,95.6833,79.86,77,16,4.52,few clouds
20,Faya,SA,18.3851,42.4509,61.32,42,0,2.21,clear sky
21,Tawang,IN,27.5833,91.8667,44.24,88,88,1.25,overcast clouds
22,Busselton,AU,-33.65,115.3333,55.56,79,30,9.26,scattered clouds
23,Libiaz,PL,50.104,19.3157,44.74,88,100,2.42,overcast clouds
24,Manokwari,ID,-0.8667,134.0833,79.14,82,100,5.03,light rain
25,Puerto Ayora,EC,-0.7393,-90.3518,84.16,77,55,9.84,broken clouds
26,Avarua,CK,-21.2078,-159.775,84.25,79,44,10.36,scattered clouds
27,Mataura,NZ,-46.1927,168.8643,50.97,70,86,4.45,overcast clouds
28,Davila,PH,18.4726,120.5763,77.54,86,100,16.42,overcast clouds
29,Tasiilaq,GL,65.6145,-37.6368,19.56,94,100,10.22,light snow
30,Srednekolymsk,RU,67.45,153.6833,-14.22,96,36,10.49,scattered clouds
31,Areia Branca,BR,-4.9561,-37.1369,81.03,79,55,11.23,broken clouds
32,Cabo San Lucas,MX,22.8909,-109.9124,86.61,60,2,10.45,clear sky
33,Hermanus,ZA,-34.4187,19.2345,59.81,73,1,20.78,clear sky
34,Barcelos,PT,41.5388,-8.6151,56.91,95,78,1.81,broken clouds
35,Albany,US,42.6001,-73.9662,58.06,53,78,4.47,broken clouds
36,Portel,BR,-1.9356,-50.8211,73.65,98,100,3.87,light rain
37,Victoria,HK,22.2855,114.1577,70.32,77,0,13.0,clear sky
38,Dikson,RU,73.5069,80.5464,-2.97,100,96,7.36,overcast clouds
39,Vila,PT,42.0304,-8.1588,43.7,93,83,1.88,broken clouds
40,New Norfolk,AU,-42.7826,147.0587,49.91,74,0,3.29,clear sky
41,Airai,TL,-8.9266,125.4092,57.79,72,100,2.3,overcast clouds
42,Sarangani,PH,5.4033,125.4636,82.11,79,100,23.82,light rain
43,Meiktila,MM,20.8667,95.8667,77.7,64,3,11.88,clear sky
44,Kagadi,UG,0.9606,30.7967,63.18,93,100,4.0,overcast clouds
45,Fort Frances,CA,48.5999,-93.4003,41.22,30,0,18.41,clear sky
46,Teguldet,RU,57.3064,88.1667,32.47,98,100,6.42,snow
47,Rikitea,PF,-23.1203,-134.9692,79.48,73,11,16.8,light rain
48,Semibratovo,RU,57.3046,39.5369,49.86,87,100,16.37,overcast clouds
49,Kapaa,US,22.0752,-159.319,78.78,77,75,18.41,broken clouds
50,Ushuaia,AR,-54.8,-68.3,42.46,75,0,3.44,clear sky
51,Atuona,PF,-9.8,-139.0333,79.5,78,72,17.05,broken clouds
52,Georgetown,MY,5.4112,100.3354,80.53,83,20,0.0,thunderstorm
53,Bridlington,GB,54.0831,-0.1919,40.01,74,6,5.01,clear sky
54,Roebourne,AU,-20.7833,117.1333,82.65,50,38,11.5,scattered clouds
55,Touros,BR,-5.1989,-35.4608,81.05,78,99,12.62,overcast clouds
56,Butaritari,KI,3.0707,172.7902,80.56,82,100,12.55,light rain
57,Bengkulu,ID,-3.8004,102.2655,74.08,90,86,3.71,overcast clouds
58,Arraial Do Cabo,BR,-22.9661,-42.0278,76.86,83,0,9.22,clear sky
59,Bluff,NZ,-46.6,168.3333,55.87,70,69,18.05,broken clouds
60,Wilmington,US,34.2257,-77.9447,69.71,34,40,17.27,scattered clouds
61,Tuktoyaktuk,CA,69.4541,-133.0374,19.54,85,88,2.89,overcast clouds
62,Banjar,ID,-8.19,114.9675,76.75,90,75,5.59,broken clouds
63,Khatanga,RU,71.9667,102.5,-7.42,100,43,4.45,scattered clouds
64,Nanortalik,GL,60.1432,-45.2371,29.05,83,53,7.2,broken clouds
65,Hobart,AU,-42.8794,147.3294,50.27,88,0,6.91,clear sky
66,Aklavik,CA,68.2191,-135.0107,28.0,86,87,10.67,overcast clouds
67,Kangaatsiaq,GL,68.3065,-53.4641,14.72,94,99,3.4,overcast clouds
68,Okha,RU,53.5739,142.9478,16.21,95,86,5.95,overcast clouds
69,Korla,CN,41.7597,86.1469,68.54,22,100,7.43,overcast clouds
70,Cape Town,ZA,-33.9258,18.4232,62.28,64,0,8.01,clear sky
71,San Patricio,US,28.017,-97.5169,84.16,16,0,5.1,clear sky
72,Goure,NE,13.9835,10.2704,86.41,10,0,6.44,clear sky
73,Loandjili,CG,-4.7561,11.8578,78.12,92,14,4.94,few clouds
74,Boa Vista,BR,2.8197,-60.6733,91.38,46,40,10.36,scattered clouds
75,Bezhanitsy,RU,56.9767,29.8907,35.96,82,71,8.93,broken clouds
76,Carnarvon,AU,-24.8667,113.6333,66.27,88,75,6.91,broken clouds
77,Mehamn,NO,71.0357,27.8492,33.75,69,40,19.57,scattered clouds
78,Qaanaaq,GL,77.484,-69.3632,-1.82,75,0,5.86,clear sky
79,Hammerfest,NO,70.6634,23.6821,30.65,80,40,27.63,scattered clouds
80,Bethel,US,41.3712,-73.414,63.63,43,20,6.91,few clouds
81,Miri,MY,4.4148,114.0089,77.58,89,100,13.22,overcast clouds
82,Hambantota,LK,6.1241,81.1185,79.21,79,96,7.72,overcast clouds
83,Bambous Virieux,MU,-20.3428,57.7575,75.22,81,81,14.16,light rain
84,Kaitangata,NZ,-46.2817,169.8464,53.01,68,12,10.94,few clouds
85,Ostrovnoy,RU,68.0531,39.5131,31.71,95,100,21.52,overcast clouds
86,Chokurdakh,RU,70.6333,147.9167,-17.09,97,79,9.15,broken clouds
87,Vaini,TO,-21.2,-175.2,84.36,79,75,3.44,broken clouds
88,Wattegama,LK,6.7989,81.4808,74.3,90,91,1.74,overcast clouds
89,Portree,GB,57.4129,-6.1942,38.52,73,55,9.1,broken clouds
90,Cukai,MY,4.25,103.4167,73.85,96,100,0.65,overcast clouds
91,Hualmay,PE,-11.0964,-77.6139,70.75,78,83,7.74,broken clouds
92,Trinidad,BO,-14.8333,-64.9,85.12,72,100,3.94,overcast clouds
93,Sassandra,CI,4.95,-6.0833,81.34,82,100,9.19,overcast clouds
94,Hofn,IS,64.2539,-15.2082,31.01,56,100,11.45,overcast clouds
95,Tangzhai,CN,34.4328,116.5911,62.56,51,17,10.8,few clouds
96,Mahebourg,MU,-20.4081,57.7,75.25,81,82,14.18,light rain
97,Kodiak,US,57.79,-152.4072,29.71,51,0,16.11,clear sky
98,Castro,BR,-24.7911,-50.0119,66.96,91,100,5.3,moderate rain
99,Richards Bay,ZA,-28.783,32.0377,64.72,89,100,2.44,light rain
100,Coquimbo,CL,-29.9533,-71.3436,58.73,88,75,6.91,broken clouds
101,Biak,ID,-0.9131,122.8766,76.14,81,100,2.91,overcast clouds
102,Itarema,BR,-2.9248,-39.9167,78.85,85,60,11.25,moderate rain
103,Barrow,US,71.2906,-156.7887,6.82,72,100,20.71,light snow
104,Carlsbad,US,33.1581,-117.3506,102.34,13,0,13.8,clear sky
105,Hervey Bay,AU,-25.2986,152.8535,71.02,96,95,8.01,overcast clouds
106,Port Elizabeth,ZA,-33.918,25.5701,60.1,95,100,5.99,overcast clouds
107,Eureka,US,40.8021,-124.1637,62.13,67,7,10.0,clear sky
108,Thompson,CA,55.7435,-97.8558,38.03,59,93,8.34,overcast clouds
109,Zhigansk,RU,66.7697,123.3711,-0.22,97,21,9.98,few clouds
110,Ribeira Grande,PT,38.5167,-28.7,57.61,90,94,30.38,overcast clouds
111,Araouane,ML,18.9048,-3.5265,88.38,11,51,12.33,broken clouds
112,Severo-Kurilsk,RU,50.6789,156.125,30.74,74,63,15.68,broken clouds
113,Tabory,RU,58.5198,64.5495,31.33,93,99,2.98,overcast clouds
114,Cherskiy,RU,68.75,161.3,-16.01,89,5,1.5,clear sky
115,Leningradskiy,RU,69.3833,178.4167,-9.2,85,92,4.81,overcast clouds
116,Cascais,PT,38.6979,-9.4215,61.47,77,75,15.99,broken clouds
117,Topolobampo,MX,25.6,-109.05,82.31,36,40,12.66,scattered clouds
118,Aranos,NA,-24.1333,19.1167,71.22,43,42,7.47,scattered clouds
119,Nemuro,JP,43.3236,145.575,36.19,81,99,11.92,overcast clouds
120,Kruisfontein,ZA,-34.0033,24.7314,57.88,75,98,8.1,overcast clouds
121,Burnie,AU,-41.0667,145.9167,61.92,84,100,12.26,overcast clouds
122,Myitkyina,MM,25.3833,97.4,68.11,74,40,3.04,scattered clouds
123,Bairiki,KI,1.3292,172.9752,82.4,78,75,13.8,broken clouds
124,San Carlos De Bariloche,AR,-41.1456,-71.3082,62.69,45,37,3.04,scattered clouds
125,Qinhuangdao,CN,39.9317,119.5883,55.83,71,34,5.5,scattered clouds
126,Vestmannaeyjar,IS,63.4427,-20.2734,35.71,55,100,7.87,overcast clouds
127,Katsuura,JP,35.1333,140.3,60.78,75,0,15.08,clear sky
128,Iqaluit,CA,63.7506,-68.5145,20.7,67,9,8.01,clear sky
129,Adrar,MR,20.5022,-10.0711,78.84,10,0,10.07,clear sky
130,Ponta Do Sol,PT,32.6667,-17.1,61.12,75,60,1.21,broken clouds
131,Namibe,AO,-15.1961,12.1522,72.39,74,1,5.88,clear sky
132,Mount Isa,AU,-20.7333,139.5,73.17,43,11,8.05,few clouds
133,Yenagoa,NG,4.9247,6.2642,79.16,90,100,6.26,overcast clouds
134,Luanda,AO,-8.8368,13.2343,77.76,89,99,8.7,overcast clouds
135,Mecca,SA,21.4267,39.8261,79.38,37,0,1.7,clear sky
136,Ust-Nera,RU,64.5667,143.2,18.09,95,100,3.51,light snow
137,Yar-Sale,RU,66.8333,70.8333,-11.65,98,65,7.78,broken clouds
138,Mar Del Plata,AR,-38.0023,-57.5575,69.1,91,0,9.22,clear sky
139,Caucaia,BR,-3.7361,-38.6531,79.03,80,0,9.22,light rain
140,Rabo De Peixe,PT,37.8,-25.5833,62.11,88,75,23.02,broken clouds
141,Berlevag,NO,70.8578,29.0864,33.8,75,75,31.07,broken clouds
142,Cap Malheureux,MU,-19.9842,57.6142,75.47,90,59,5.99,broken clouds
143,Jaleswar,NP,26.6471,85.8008,78.6,56,0,11.41,clear sky
144,Konakovo,RU,56.7,36.7667,42.12,92,100,10.71,overcast clouds
145,Katobu,ID,-4.9408,122.5276,74.01,93,74,2.48,broken clouds
146,Montclair,US,40.8259,-74.209,64.44,30,20,16.11,few clouds
147,Envira,BR,-7.3,-70.2167,77.67,91,99,2.53,overcast clouds
148,Nome,US,64.5011,-165.4064,11.16,85,100,16.11,mist
149,Talnakh,RU,69.4865,88.3972,-2.79,98,100,3.31,overcast clouds
150,Puerto Escondido,MX,15.85,-97.0667,83.23,69,40,5.75,scattered clouds
151,Lompoc,US,34.6391,-120.4579,98.78,51,8,5.99,clear sky
152,Carndonagh,IE,55.25,-7.2667,36.88,74,32,8.19,scattered clouds
153,Elk Point,US,42.6833,-96.6836,53.44,26,1,19.84,clear sky
154,Ngunguru,NZ,-35.6167,174.5,63.63,62,73,8.23,broken clouds
155,Yulara,AU,-25.2406,130.9889,58.35,44,0,7.65,clear sky
156,Port Moresby,PG,-9.4431,147.1797,76.42,88,99,2.26,overcast clouds
157,Kavieng,PG,-2.5744,150.7967,79.07,83,100,9.51,overcast clouds
158,Bayan,CN,46.0833,127.4,40.96,67,13,4.23,few clouds
159,Algiers,DZ,36.7525,3.042,55.22,72,0,2.3,clear sky
160,Saint-Pierre,RE,-21.3393,55.4781,74.91,83,75,20.71,broken clouds
161,Marienburg,PL,54.0359,19.0266,41.11,73,92,8.57,overcast clouds
162,Hobbs,US,32.7026,-103.136,69.06,9,0,9.22,clear sky
163,Yellowknife,CA,62.456,-114.3525,37.42,97,100,10.0,overcast clouds
164,Rocha,UY,-34.4833,-54.3333,69.12,70,0,10.45,clear sky
165,Turukhansk,RU,65.8167,87.9833,7.27,97,91,2.64,overcast clouds
166,Mansa,IN,29.9833,75.3833,81.63,9,0,6.11,clear sky
167,Vardo,NO,70.3705,31.1107,33.78,80,75,28.77,broken clouds
168,Faanui,PF,-16.4833,-151.75,82.69,73,100,18.97,overcast clouds
169,Zvishavane,ZW,-20.3267,30.0665,64.74,81,99,11.3,overcast clouds
170,Las Cruces,US,32.3123,-106.7783,77.11,7,0,4.61,clear sky
171,Shubarshi,KZ,48.5872,57.1869,49.55,68,100,17.09,overcast clouds
172,Los Algarrobos,PA,8.5,-82.4333,85.51,59,91,4.68,overcast clouds
173,Maragogi,BR,-9.0122,-35.2225,78.69,83,30,6.31,scattered clouds
174,Porto Murtinho,BR,-21.6989,-57.8825,82.96,68,100,10.18,overcast clouds
175,Sur,OM,22.5667,59.5289,86.92,42,89,8.95,overcast clouds
176,Lavrentiya,RU,65.5833,-171.0,-6.43,87,75,2.37,broken clouds
177,Kastornoye,RU,51.8334,38.1302,49.6,91,100,11.52,overcast clouds
178,Upernavik,GL,72.7868,-56.1549,10.56,92,100,4.41,overcast clouds
179,Mocorito,MX,25.4833,-107.9167,84.2,26,50,12.88,scattered clouds
180,Sinnamary,GF,5.3833,-52.95,76.5,91,100,9.57,overcast clouds
181,Hithadhoo,MV,-0.6,73.0833,82.87,70,61,7.02,broken clouds
182,Stornoway,GB,58.2093,-6.3865,37.04,79,20,6.91,few clouds
183,Waikuku,NZ,-43.3,172.6833,58.41,82,86,2.89,overcast clouds
184,Russell,US,32.3502,-85.1999,65.12,35,20,19.57,few clouds
185,Murray,US,40.6669,-111.888,74.37,18,0,8.05,clear sky
186,Saint-Philippe,RE,-21.3585,55.7679,74.79,86,70,11.16,light rain
187,Sitka,US,57.0531,-135.33,39.09,81,100,0.0,moderate rain
188,Ipubi,BR,-7.6519,-40.1489,77.04,63,61,2.24,broken clouds
189,Pio Xii,BR,-3.8325,-45.1525,77.2,94,87,2.75,overcast clouds
190,Provideniya,RU,64.3833,-173.3,1.83,88,28,7.0,scattered clouds
191,Port Pirie,AU,-33.1833,138.0167,53.69,67,0,4.12,clear sky
192,Chuy,UY,-33.6971,-53.4616,69.1,76,9,8.1,clear sky
193,Chara,RU,56.9064,118.2631,14.76,74,100,3.18,overcast clouds
194,San Nicolas,PH,18.1725,120.5953,77.43,83,99,6.15,overcast clouds
195,Dandong,CN,40.1292,124.3947,46.38,75,44,7.11,scattered clouds
196,Lata,PT,40.1629,-8.3327,56.8,99,100,5.44,overcast clouds
197,Cidreira,BR,-30.1811,-50.2056,69.03,80,97,11.52,overcast clouds
198,Tahe,CN,52.3333,124.7333,21.7,98,87,3.8,overcast clouds
199,San Francisco,US,37.7749,-122.4194,90.75,57,75,21.85,broken clouds
200,Makakilo City,US,21.3469,-158.0858,79.12,59,20,14.97,few clouds
201,Saint-Ambroise,CA,48.5501,-71.3324,37.58,93,100,11.63,moderate rain
202,Corinto,GR,37.9407,22.9573,61.9,69,0,5.03,clear sky
203,Laguna,US,38.421,-121.4238,90.97,27,0,5.75,clear sky
204,Jamestown,US,42.097,-79.2353,40.95,73,100,10.36,overcast clouds
205,Buchanan,LR,5.8808,-10.0467,80.98,87,95,9.4,overcast clouds
206,Dingle,PH,10.9995,122.6711,74.34,92,99,4.94,overcast clouds
207,Chicama,PE,-7.8447,-79.1469,66.74,65,77,9.55,broken clouds
208,Zhaoqing,CN,23.0512,112.4597,66.43,76,0,2.08,clear sky
209,Mirante Do Paranapanema,BR,-22.2919,-51.9064,72.72,93,100,9.48,heavy intensity rain
210,Saint Anthony,US,45.0205,-93.218,47.98,37,0,19.57,clear sky
211,Cayenne,GF,4.9333,-52.3333,82.09,1,75,8.05,broken clouds
212,Lixourion,GR,38.2019,20.4314,57.29,81,0,4.5,clear sky
213,Olafsvik,IS,64.8945,-23.7142,34.09,59,100,9.73,overcast clouds
214,Pemba,MZ,-12.974,40.5178,79.5,89,75,4.61,thunderstorm
215,Souillac,MU,-20.5167,57.5167,77.05,84,70,13.31,light rain
216,Pine Bluff,US,34.2284,-92.0032,55.33,40,100,16.11,overcast clouds
217,Daru,PG,-9.0763,143.2092,79.18,85,63,9.22,broken clouds
218,Rawlins,US,41.7911,-107.2387,62.49,16,0,11.5,clear sky
219,Kibre Mengist,ET,5.8833,38.9833,62.71,64,100,0.6,overcast clouds
220,Ulaanbaatar,MN,47.9077,106.8832,50.13,23,75,17.9,broken clouds
221,Krasnoarmeysk,RU,51.0239,45.6969,49.03,76,100,8.41,overcast clouds
222,Ihosy,MG,-22.4,46.1167,66.9,96,69,8.14,broken clouds
223,Shimoda,JP,34.6667,138.95,56.1,81,0,7.18,clear sky
224,Lima,PE,-12.0432,-77.0282,70.05,50,40,10.36,scattered clouds
225,Praia,CV,14.9215,-23.5087,73.94,68,0,18.41,clear sky
226,Ozernovskiy,RU,51.5,156.5167,30.63,82,100,16.08,light snow
227,Yaan,NG,7.3833,8.5667,86.25,56,100,9.35,light rain
228,Santa Isabel Do Rio Negro,BR,-0.4139,-65.0192,80.96,92,94,2.46,overcast clouds
229,Nizhniy Bestyakh,RU,61.9594,129.9086,4.48,78,0,4.47,clear sky
230,Victor Harbor,AU,-35.5667,138.6167,55.0,94,0,8.81,clear sky
231,Fukue,JP,32.6881,128.8419,60.89,63,0,6.87,clear sky
232,Abnub,EG,27.2696,31.1511,75.63,23,0,16.28,clear sky
233,Marawi,PH,7.9986,124.2928,68.81,98,100,2.68,overcast clouds
234,Bulungu,CD,-4.55,18.6,75.09,83,64,2.17,light rain
235,Praya,CV,14.9215,-23.5087,73.94,68,0,18.41,clear sky
236,Ereymentau,KZ,51.6199,73.1033,32.85,91,12,2.86,few clouds
237,Cairns,AU,-16.9167,145.7667,78.75,87,40,4.61,scattered clouds
238,Juneau,US,58.3019,-134.4197,44.6,68,100,8.05,overcast clouds
239,Goryachegorsk,RU,55.4053,88.9154,31.77,89,97,17.09,light snow
240,Mayo,US,38.8876,-76.5119,65.35,52,75,14.97,broken clouds
241,Issia,CI,6.4922,-6.5856,79.16,77,100,6.78,overcast clouds
242,Sorland,NO,67.667,12.6934,36.97,60,100,25.21,overcast clouds
243,Anadyr,RU,64.75,177.4833,0.48,70,89,2.46,overcast clouds
244,Nikolskoye,RU,59.7035,30.7861,39.78,87,100,6.31,overcast clouds
245,Ekibastuz,KZ,51.6667,75.3667,36.99,69,10,8.1,clear sky
246,Fortuna,US,40.5982,-124.1573,57.92,69,40,21.85,scattered clouds
247,Belmonte,BR,-15.8631,-38.8828,78.73,76,0,5.99,clear sky
248,Khandyga,RU,62.6667,135.6,-3.33,100,92,1.97,overcast clouds
249,Bedele,ET,8.456,36.353,62.69,58,100,3.47,overcast clouds
250,Praia Da Vitoria,PT,38.7333,-27.0667,63.75,89,89,39.86,overcast clouds
251,Geraldton,AU,-28.7667,114.6,68.41,73,100,10.36,overcast clouds
252,Iberia,US,29.9502,-91.7507,71.96,21,0,19.57,clear sky
253,Asfi,MA,32.2994,-9.2372,59.74,82,25,18.1,scattered clouds
254,Pangnirtung,CA,66.1451,-65.7125,14.31,98,100,3.0,overcast clouds
255,Shellbrook,CA,53.2168,-106.4011,48.43,58,35,17.25,scattered clouds
256,Tiksi,RU,71.6872,128.8694,-10.66,100,100,4.12,overcast clouds
257,Bathsheba,BB,13.2167,-59.5167,83.01,61,20,17.27,few clouds
258,Kennewick,US,46.2113,-119.1372,68.02,25,0,19.57,clear sky
259,Xiongzhou,CN,25.1167,114.3,63.1,58,0,0.72,clear sky
260,Torbay,CA,47.6666,-52.7314,35.76,88,87,4.0,overcast clouds
261,Utete,TZ,-7.986,38.758,72.66,96,4,3.53,light rain
262,Alyangula,AU,-13.8483,136.4192,79.77,62,100,3.67,overcast clouds
263,Vyyezdnoye,RU,55.3815,43.7864,41.27,85,75,12.26,broken clouds
264,Denpasar,ID,-8.65,115.2167,77.45,85,94,3.36,overcast clouds
265,Beringovskiy,RU,63.05,179.3167,6.04,85,99,3.83,overcast clouds
266,Rock Sound,BS,24.9,-76.2,79.29,77,70,10.74,broken clouds
267,Lebu,CL,-37.6167,-73.65,58.42,75,57,11.39,broken clouds
268,Bolshoye Selo,RU,57.7177,38.9334,41.36,89,100,13.22,overcast clouds
269,Challans,FR,46.8436,-1.8749,45.52,84,83,8.93,broken clouds
270,Darlowo,PL,54.421,16.4107,39.83,76,95,15.55,overcast clouds
271,Mitu,CO,1.1983,-70.1733,87.46,58,57,2.04,broken clouds
272,Grand Gaube,MU,-20.0064,57.6608,75.38,90,54,5.99,broken clouds
273,Yeniseysk,RU,58.4497,92.1703,32.31,99,100,4.43,snow
274,Deputatskiy,RU,69.3,139.9,-5.04,100,100,3.22,overcast clouds
275,Monjas,GT,14.5,-89.8667,83.1,42,100,10.22,overcast clouds
276,Nederland,US,29.9744,-93.9924,75.24,21,0,19.57,clear sky
277,Caravelas,BR,-17.7125,-39.2481,77.63,79,3,5.66,clear sky
278,Ancud,CL,-41.8697,-73.8203,57.22,66,21,5.95,few clouds
279,Barranca,PE,-10.75,-77.7667,70.39,76,77,8.05,broken clouds
280,Saskylakh,RU,71.9167,114.0833,-13.63,100,99,3.22,overcast clouds
281,Port Lincoln,AU,-34.7333,135.8667,64.49,83,0,10.74,clear sky
282,Kyela,TZ,-9.5833,33.85,70.9,89,6,3.13,clear sky
283,Ponorogo,ID,-7.8685,111.462,73.36,92,30,5.08,scattered clouds
284,Vila Velha,BR,-20.3297,-40.2925,82.35,74,75,5.75,broken clouds
285,Tura,IN,25.5198,90.2201,70.86,72,0,3.6,clear sky
286,Rawson,AR,-43.3002,-65.1023,63.43,69,37,17.2,scattered clouds
287,Namwala,ZM,-15.7504,26.4384,63.86,96,58,5.53,broken clouds
288,Longview,US,32.5007,-94.7405,68.25,20,0,21.85,clear sky
289,Colares,PT,38.7992,-9.4469,61.29,78,75,15.99,broken clouds
290,Poiana Mare,RO,43.9167,23.0667,56.35,68,100,4.18,overcast clouds
291,Beyneu,KZ,45.3167,55.2,59.54,45,62,21.18,broken clouds
292,Flinders,AU,-34.5833,150.8552,67.37,89,71,4.0,broken clouds
293,Hami,CN,42.8,93.45,66.07,18,100,11.32,overcast clouds
294,Imbituba,BR,-28.24,-48.6703,72.82,92,100,8.61,overcast clouds
295,Ilulissat,GL,69.2167,-51.1,15.82,79,75,3.44,broken clouds
296,Christchurch,NZ,-43.5333,172.6333,59.92,82,20,4.0,few clouds
297,Marsabit,KE,2.3284,37.9899,73.29,43,54,10.78,broken clouds
298,Palmer,US,42.1584,-72.3287,61.09,55,64,8.01,broken clouds
299,Port Macquarie,AU,-31.4333,152.9167,66.09,94,75,4.61,broken clouds
300,Saldanha,ZA,-33.0117,17.9442,62.26,61,0,16.55,clear sky
301,Manacapuru,BR,-3.2997,-60.6206,82.74,81,72,4.52,light rain
302,Mao,ES,39.8885,4.2658,57.76,82,0,12.66,clear sky
303,Garowe,SO,8.4054,48.4845,75.9,77,100,10.04,overcast clouds
304,Roald,NO,62.5833,6.1333,37.76,93,75,6.91,broken clouds
305,Jiuquan,CN,39.7432,98.5174,58.75,11,6,7.49,clear sky
306,Iquitos,PE,-3.7481,-73.2472,91.44,58,75,4.61,broken clouds
307,Zyrardow,PL,52.0488,20.446,45.81,100,100,8.72,overcast clouds
308,Talcahuano,CL,-36.7167,-73.1167,60.48,77,0,11.5,clear sky
309,Gijon,ES,43.5357,-5.6615,55.83,85,91,1.01,overcast clouds
310,Dukat,RU,62.55,155.55,8.33,94,86,3.18,overcast clouds
311,Markova,UA,48.6758,24.4138,50.85,74,98,10.38,overcast clouds
312,Portobelo,PA,9.55,-79.65,80.74,91,94,11.43,overcast clouds
313,Iralaya,HN,15.0,-83.2333,82.98,64,100,11.52,overcast clouds
314,Kununurra,AU,-15.7667,128.7333,69.78,83,100,3.44,overcast clouds
315,Powell River,CA,49.8496,-124.5361,48.2,81,75,2.3,broken clouds
316,Ivanteyevka,RU,55.9711,37.9208,48.74,89,100,13.06,overcast clouds
317,Boa Esperanca,BR,-21.09,-45.5658,71.67,86,90,1.72,moderate rain
318,Huangchuan,CN,32.1272,115.0394,62.65,51,13,9.86,few clouds
319,Vytegra,RU,61.0064,36.4481,41.47,93,100,13.44,overcast clouds
320,Margate,GB,51.3813,1.3862,42.69,74,100,1.99,overcast clouds
321,Keighley,GB,53.8679,-1.9066,39.13,51,0,13.8,clear sky
322,Tsuyama,JP,35.05,134.0,42.84,81,0,0.76,clear sky
323,Coihaique,CL,-45.5752,-72.0662,59.61,58,40,5.75,scattered clouds
324,Shimanovsk,RU,52.0,127.7,22.08,95,82,4.21,broken clouds
325,Tiznit,MA,29.5833,-9.5,64.54,53,0,0.56,clear sky
326,Kavaratti,IN,10.5669,72.642,83.25,73,100,5.97,overcast clouds
327,Nagato,JP,34.3833,131.2,53.26,55,0,6.93,clear sky
328,Maltahohe,NA,-24.8333,16.9833,67.17,21,3,8.68,clear sky
329,Kloulklubed,PW,7.0419,134.2556,80.65,85,100,13.22,moderate rain
330,Pevek,RU,69.7008,170.3133,-13.79,97,99,5.59,overcast clouds
331,Saint-Georges,GD,12.0564,-61.7485,82.08,74,20,23.02,few clouds
332,Simplicio Mendes,BR,-7.8539,-41.9103,84.2,50,98,3.04,overcast clouds
333,Wencheng,CN,33.0559,113.7978,68.2,46,100,10.8,overcast clouds
334,Tripoli,LY,32.8752,13.1875,62.47,61,40,14.03,scattered clouds
335,Severo-Yeniseyskiy,RU,60.3725,93.0408,18.61,98,100,1.88,overcast clouds
336,Lasa,IT,46.6166,10.7002,52.68,99,96,4.81,overcast clouds
337,Yakeshi,CN,49.2833,120.7333,31.5,58,2,5.14,clear sky
338,Norrtalje,SE,59.758,18.705,31.01,94,100,13.38,light snow
339,Opuwo,NA,-18.0607,13.84,73.24,43,1,1.9,clear sky
340,Ruy Barbosa,BR,-12.2839,-40.4939,78.04,34,5,1.16,clear sky
341,Hirado,JP,33.3597,129.5531,52.39,63,0,9.13,clear sky
342,Port Keats,AU,-14.25,129.55,75.81,82,96,3.2,overcast clouds
343,Broken Hill,AU,-31.95,141.4333,64.36,68,87,8.3,overcast clouds
344,Aleksandrov Gay,RU,50.147,48.5704,50.05,89,100,12.86,overcast clouds
345,Rokytne,UA,51.2796,27.214,42.58,82,75,6.24,broken clouds
346,Antsohihy,MG,-14.8796,47.9875,74.43,97,100,3.6,light rain
347,Bundaberg,AU,-24.85,152.35,73.22,91,75,11.5,broken clouds
348,Husavik,IS,66.0449,-17.3389,22.98,75,96,2.57,overcast clouds
349,Dunedin,NZ,-45.8742,170.5036,56.8,55,10,11.99,clear sky
350,Nurobod,UZ,40.9056,69.8023,67.14,49,100,4.76,overcast clouds
351,Puerto Ayacucho,VE,5.6639,-67.6236,89.01,58,92,3.83,overcast clouds
352,Tanout,NE,14.9709,8.8879,89.46,7,1,11.77,clear sky
353,Abu Dhabi,AE,24.4667,54.3667,80.71,65,0,3.44,clear sky
354,Ahipara,NZ,-35.1667,173.1667,64.33,63,24,7.14,few clouds
355,Sao Felix Do Xingu,BR,-6.6447,-51.995,75.83,95,83,3.96,broken clouds
356,Aljezur,PT,37.3191,-8.8033,56.21,94,100,5.03,overcast clouds
357,Tuatapere,NZ,-46.1333,167.6833,49.93,71,28,3.6,scattered clouds
358,Rameswaram,IN,9.2833,79.3,84.38,69,99,7.16,overcast clouds
359,Mount Gambier,AU,-37.8333,140.7667,55.13,86,0,4.45,clear sky
360,Sabang,ID,5.8933,95.3214,82.26,73,53,6.6,broken clouds
361,Bukama,CD,-9.2,25.85,70.16,92,11,1.34,few clouds
362,Sao Luis De Montes Belos,BR,-16.525,-50.3722,76.33,79,62,1.95,broken clouds
363,Shingu,JP,33.7333,135.9833,52.16,73,0,5.79,clear sky
364,San Jeronimo,PE,-11.9472,-75.2829,57.69,65,97,2.17,overcast clouds
365,Mlimba,TZ,-8.8,35.8167,71.26,88,7,3.33,clear sky
366,Norman Wells,CA,65.282,-126.8329,37.44,41,20,4.61,few clouds
367,Labuhan,ID,-6.8844,112.2051,76.71,89,88,8.93,overcast clouds
368,Vao,NC,-22.6667,167.4833,77.9,87,8,25.28,clear sky
369,Mombetsu,JP,44.3525,143.3525,34.39,75,100,5.79,overcast clouds
370,Tessalit,ML,20.1986,1.0114,89.49,12,5,19.39,clear sky
371,Moissala,TD,8.3404,17.7663,82.54,43,34,3.11,scattered clouds
372,Sorong,ID,-0.8833,131.25,78.89,85,100,9.69,light rain
373,Waipawa,NZ,-41.4122,175.5153,52.79,72,100,7.9,overcast clouds
374,Konya,TR,38.1667,32.5,47.68,75,0,5.35,clear sky
375,Galveston,US,29.3669,-94.9669,77.09,21,0,11.01,clear sky
376,Moindou,NC,-21.6924,165.677,78.91,85,88,10.29,overcast clouds
377,Tomigusuku,JP,26.185,127.675,67.77,78,20,6.91,few clouds
378,Kupang,ID,-10.1667,123.5833,75.99,88,36,4.56,scattered clouds
379,Benin,BJ,9.5,2.25,89.85,35,100,6.49,overcast clouds
380,Lugovoy,KZ,42.9472,72.7644,55.99,65,87,3.11,overcast clouds
381,Arkhangelsk,RU,64.5401,40.5433,37.51,80,75,15.66,broken clouds
382,Nenjiang,CN,49.1833,125.2167,31.6,92,25,3.83,scattered clouds
383,Ilukste,LV,55.9775,26.2966,35.83,72,66,8.55,broken clouds
384,Santa Maria Del Oro,MX,25.9333,-105.3667,79.84,14,74,9.22,broken clouds
385,Port Hedland,AU,-20.3167,118.5667,77.05,94,5,6.91,clear sky
386,Taoudenni,ML,22.6783,-3.9836,85.08,9,0,12.53,clear sky
387,Saint George,US,37.1041,-113.5841,82.44,9,0,3.0,clear sky
388,Palana,RU,59.1167,159.9667,21.11,93,100,9.95,overcast clouds
389,Tanda,IN,26.55,82.65,80.51,20,0,0.4,clear sky
390,Yuancheng,CN,36.652,107.7896,54.99,15,0,4.25,clear sky
391,Esperance,AU,-33.8667,121.9,62.44,82,98,27.07,overcast clouds
392,Kahului,US,20.8947,-156.47,80.62,57,40,24.16,scattered clouds
393,Wellsford,NZ,-36.2833,174.5167,65.57,63,100,4.14,overcast clouds
394,Bajil,YE,15.0584,43.2851,84.54,50,6,4.5,clear sky
395,Abu Samrah,SY,35.3029,37.1841,55.78,81,1,23.91,clear sky
396,Cockburn Town,TC,21.4612,-71.1419,78.57,81,16,19.46,few clouds
397,Kachiry,KZ,53.0675,76.1036,34.05,74,0,8.52,clear sky
398,Bhakkar,PK,31.6253,71.0657,83.77,11,2,6.29,clear sky
399,Grindavik,IS,63.8424,-22.4338,34.27,47,0,2.3,clear sky
400,Lorengau,PG,-2.0226,147.2712,77.81,90,100,4.72,overcast clouds
401,Arlit,NE,18.7369,7.3853,89.44,5,1,6.26,clear sky
402,Qaqortoq,GL,60.7167,-46.0333,29.46,77,9,5.21,clear sky
403,Aripuana,BR,-9.1667,-60.6333,80.28,84,93,2.8,overcast clouds
404,Segovia,ES,41.1667,-4.0,51.44,91,100,13.71,overcast clouds
405,Lagoa,PT,39.05,-27.9833,61.47,88,72,41.54,broken clouds
406,Hay River,CA,60.8156,-115.7999,33.78,93,100,12.66,overcast clouds
407,Wukari,NG,7.85,9.7833,79.21,66,100,8.63,overcast clouds
408,Beira,MZ,-19.8436,34.8389,75.67,87,100,11.41,moderate rain
409,Tarauaca,BR,-8.1614,-70.7656,81.55,90,89,2.39,heavy intensity rain
410,Kerman,IR,30.2832,57.0788,64.26,17,0,0.0,clear sky
411,Eyl,SO,7.9803,49.8164,80.37,83,100,8.41,overcast clouds
412,Tommot,RU,58.9564,126.2925,-4.0,100,80,0.98,broken clouds
413,Havre,FR,49.5833,0.3333,44.37,76,73,16.11,broken clouds
414,Manicore,BR,-5.8092,-61.3003,79.68,93,88,3.56,overcast clouds
415,Tocopilla,CL,-22.092,-70.1979,71.35,62,43,9.22,scattered clouds
416,Hudson Bay,CA,52.85,-102.3842,41.95,62,91,11.05,overcast clouds
417,Sistranda,NO,63.7256,8.834,33.76,78,100,27.31,light snow
418,Barabinsk,RU,55.3571,78.357,32.54,83,100,15.5,overcast clouds
419,Saint-Andre,RE,-20.95,55.65,78.22,85,75,12.66,broken clouds
420,Igarka,RU,67.4667,86.5833,1.9,97,93,6.69,overcast clouds
421,Udarnyy,RU,54.3409,42.8611,43.68,85,99,11.52,overcast clouds
422,Pangody,RU,65.85,74.4859,-12.08,100,32,6.96,scattered clouds
423,Zarand,IR,30.8127,56.564,67.75,13,100,5.57,overcast clouds
424,Manzil Salim,TN,35.8567,8.4765,55.74,48,0,2.06,clear sky
425,Porto Novo,BJ,6.4965,2.6036,82.38,80,72,10.51,broken clouds
426,Winslow,US,35.0242,-110.6974,73.96,8,0,6.91,clear sky
427,Codrington,AU,-38.2667,141.9667,60.42,84,0,8.34,clear sky
428,Namie,JP,37.4833,141.0,44.71,83,2,5.17,clear sky
429,Hamilton,US,39.1834,-84.5333,47.43,82,100,14.97,light rain
430,Grandview,US,38.8858,-94.533,50.95,52,100,23.02,overcast clouds
431,Ikom,NG,5.9667,8.7063,78.91,87,100,3.04,overcast clouds
432,Walvis Bay,NA,-22.9575,14.5053,54.55,100,0,2.3,clear sky
433,Ayan,RU,56.45,138.1667,17.69,77,27,8.08,scattered clouds
434,Oranjemund,NA,-28.55,16.4333,62.08,69,0,8.03,clear sky
435,Idaho Falls,US,43.4666,-112.0341,69.89,21,0,12.66,clear sky
436,Kota Kinabalu,MY,5.9749,116.0724,75.18,94,40,13.0,light rain
437,Akyab,MM,20.15,92.9,78.42,81,25,0.81,scattered clouds
438,Cravo Norte,CO,6.3017,-70.2041,95.72,32,96,4.92,overcast clouds
439,Te Anau,NZ,-45.4167,167.7167,45.84,80,20,0.72,few clouds
440,Alexandria,EG,31.2156,29.9553,60.73,82,0,8.46,clear sky
441,Longyearbyen,SJ,78.2186,15.6401,10.24,72,0,14.97,clear sky
442,Brae,GB,60.3964,-1.353,39.49,60,32,25.9,scattered clouds
443,Santa Cruz Cabralia,BR,-16.2781,-39.0247,80.83,78,75,3.44,broken clouds
444,Velizh,RU,55.6056,31.1967,36.32,94,77,4.7,broken clouds
445,Tres Palos,MX,18.1833,-101.6167,94.93,21,100,8.7,overcast clouds
446,Aanekoski,FI,62.6946,25.818,33.87,97,92,10.31,light snow
447,Saint-Augustin,CA,51.226,-58.6502,32.43,95,100,9.01,overcast clouds
448,Tautira,PF,-17.7333,-149.15,81.75,74,100,19.39,overcast clouds
449,Vostok,RU,46.4856,135.8833,29.25,94,97,3.2,overcast clouds
450,Zalantun,CN,48.0,122.7167,38.35,52,0,4.97,clear sky
451,Paamiut,GL,61.994,-49.6678,24.76,84,99,13.94,overcast clouds
452,Trairi,BR,-3.2778,-39.2689,78.39,85,26,7.96,scattered clouds
453,Jubbal,IN,31.1167,77.6667,52.56,29,0,4.09,clear sky
454,Boddam,GB,57.4667,-1.7833,37.78,80,39,23.71,scattered clouds
455,Presidente Bernardes,BR,-22.0061,-51.5531,84.58,90,65,10.54,light rain
456,Pasni,PK,25.2631,63.471,79.18,78,4,12.91,clear sky
457,Lac Du Bonnet,CA,50.2536,-96.0612,42.84,48,7,7.29,clear sky
458,Makat,KZ,47.6469,53.3463,51.82,76,100,24.54,overcast clouds
459,Yerbogachen,RU,61.2767,108.0108,2.14,100,69,1.16,broken clouds
460,Losone,CH,46.1687,8.7593,58.42,97,75,2.3,broken clouds
461,Am Timan,TD,11.0297,20.2827,91.83,21,25,5.46,scattered clouds
462,Guerrero Negro,MX,27.9769,-114.0611,87.12,20,41,11.23,scattered clouds
463,Roma,US,43.2128,-75.4557,56.37,47,40,4.61,scattered clouds
464,Poronaysk,RU,49.2167,143.1167,30.97,82,95,3.02,overcast clouds
465,Agbor,NG,6.2518,6.1934,80.89,78,93,6.93,overcast clouds
466,Los Andes,CL,-32.8337,-70.5983,80.01,23,0,7.29,clear sky
467,Boguchany,RU,58.3814,97.4531,28.96,97,100,2.33,overcast clouds
468,Tayoltita,MX,24.0833,-105.9333,87.1,23,22,8.77,few clouds
469,Andenes,NO,69.3143,16.1194,35.58,60,75,24.16,broken clouds
470,Eckernforde,DE,54.4667,9.8333,39.2,90,9,11.41,clear sky
471,Salinas,US,36.6777,-121.6555,93.56,45,0,12.66,clear sky
472,Mahon,ES,39.8885,4.2658,57.76,82,0,12.66,clear sky
473,Kirkwood,US,38.5834,-90.4068,42.12,73,100,14.97,overcast clouds
474,Launceston,AU,-41.45,147.1667,56.8,92,18,8.05,few clouds
475,Nybro,SE,56.7446,15.9071,35.04,78,19,8.99,few clouds
476,Alofi,NU,-19.0595,-169.9187,85.89,70,63,9.22,broken clouds
477,Puerto Leguizamo,CO,-0.1934,-74.7819,85.32,64,91,0.54,overcast clouds
478,Teguise,ES,29.0605,-13.564,61.02,68,20,17.27,few clouds
479,Ocean City,US,39.2776,-74.5746,64.02,57,3,8.99,clear sky
480,Yangjiang,CN,21.85,111.9667,66.06,79,0,2.84,clear sky
481,Duzce,TR,40.8389,31.1639,52.72,82,30,6.08,scattered clouds
482,Tabursuq,TN,36.4569,9.2475,54.1,70,0,1.99,clear sky
483,Mpika,ZM,-11.8343,31.4529,62.15,98,100,8.16,light rain
484,Matagami,CA,49.7502,-77.6328,39.31,87,100,4.61,overcast clouds
485,Arshan,RU,46.2732,44.22,48.58,93,49,15.66,scattered clouds
486,Havelock,US,34.8791,-76.9013,70.99,52,0,16.11,clear sky
487,Samarai,PG,-10.6167,150.6667,82.0,75,100,12.66,overcast clouds
488,Beloha,MG,-25.1667,45.05,75.11,84,55,13.91,broken clouds
489,Prince Rupert,CA,54.3161,-130.3201,44.69,76,40,21.85,scattered clouds
490,Robe,AU,-37.1833,139.75,57.63,84,0,8.63,clear sky
491,Bandarbeyla,SO,9.4942,50.8122,80.1,82,26,6.29,scattered clouds
492,Fonte Boa,BR,-2.4959,-66.2662,83.39,80,95,4.03,overcast clouds
493,Finschhafen,PG,-6.6024,147.8681,76.57,95,100,7.7,moderate rain
494,La Romana,DO,18.4273,-68.9728,82.76,65,20,11.5,few clouds
495,Mantua,IT,45.1667,10.7833,61.09,67,69,3.09,broken clouds
496,Senador Jose Porfirio,BR,-2.5908,-51.9542,76.26,94,90,5.35,moderate rain
497,Changde,CN,29.0464,111.6783,66.58,54,96,4.03,overcast clouds
498,Saint-Francois,FR,46.4154,3.9054,53.04,62,100,25.32,overcast clouds
499,Libertador General San Martin,AR,-23.8064,-64.7876,78.98,88,62,4.45,broken clouds
500,Chapais,CA,49.7834,-74.8492,33.58,99,100,7.92,light snow
501,Varnavino,RU,57.4035,45.0916,37.6,93,95,8.79,overcast clouds
502,Whitehorse,CA,60.7161,-135.0538,40.01,42,75,13.8,broken clouds
503,Lalibela,ET,12.0333,39.0333,62.28,34,0,8.3,clear sky
504,Skibbereen,IE,51.55,-9.2667,40.1,66,1,11.68,clear sky
505,Westport,US,41.1415,-73.3579,65.28,44,0,11.5,clear sky
506,Tomatlan,MX,19.9333,-105.25,85.33,44,100,8.61,overcast clouds
507,Carutapera,BR,-1.195,-46.02,75.99,94,100,1.7,overcast clouds
508,Byron Bay,AU,-28.65,153.6167,66.94,88,77,9.62,broken clouds
509,Varhaug,NO,58.6147,5.6457,38.75,64,22,31.32,few clouds
510,Port Hardy,CA,50.6996,-127.4199,44.78,81,75,10.36,light intensity shower rain
511,Marzuq,YE,14.4,46.4667,67.77,43,0,5.61,clear sky
512,Koumac,NC,-20.5667,164.2833,80.56,78,93,3.49,overcast clouds
513,Alice Springs,AU,-23.7,133.8833,49.55,66,0,5.75,clear sky
514,Marsh Harbour,BS,26.5412,-77.0636,74.7,66,62,15.05,broken clouds
515,Svetlogorsk,BY,52.6333,29.7333,41.38,89,72,8.39,broken clouds
516,Tarakan,ID,3.3,117.6333,81.9,83,75,3.44,broken clouds
517,Laiyang,CN,36.9758,120.7136,54.81,81,3,5.35,clear sky
518,Jinji,CN,23.2281,110.8261,66.45,62,0,3.15,clear sky
519,Plouzane,FR,48.3833,-4.6167,44.65,81,40,10.36,scattered clouds
520,Muros,ES,42.7762,-9.0603,53.83,92,62,1.01,broken clouds
521,Waingapu,ID,-9.6567,120.2641,76.84,86,61,3.78,broken clouds
522,Ijero,NG,6.4819,3.3803,83.73,79,90,11.27,overcast clouds
523,Rapid Valley,US,44.0625,-103.1463,60.31,25,0,8.99,clear sky
524,Kunmadaras,HU,47.4333,20.8,55.98,66,99,17.52,overcast clouds
525,Kodinar,IN,20.7903,70.7031,84.6,33,3,10.8,clear sky
526,Puro,PH,12.4841,123.3827,77.81,84,100,6.64,overcast clouds
527,Svobodnyy,RU,51.4,128.1333,23.99,96,36,2.98,scattered clouds
528,Amvrosiyivka,UA,47.7935,38.4777,48.25,92,100,7.29,overcast clouds
529,Sisimiut,GL,66.9395,-53.6735,15.62,85,98,8.25,overcast clouds
530,Asilah,MA,35.465,-6.0348,57.16,79,100,5.37,overcast clouds
531,Ucluelet,CA,48.9329,-125.5528,50.09,80,100,7.0,overcast clouds
532,Alihe,CN,50.5667,123.7167,25.79,97,27,1.45,scattered clouds
533,Nara,JP,34.6851,135.8049,53.69,43,0,2.66,clear sky
534,Asau,RO,46.4333,26.4,51.96,72,100,7.34,overcast clouds
535,Porto Walter,BR,-8.2686,-72.7439,80.22,93,100,0.96,light rain
536,Rochegda,RU,62.8,43.25,34.68,98,100,11.61,overcast clouds
537,Manta,EC,-0.95,-80.7333,80.38,74,20,8.05,few clouds
538,Chengde,CN,40.9725,117.9361,54.1,55,32,2.71,scattered clouds
539,Puerto Suarez,BO,-18.95,-57.8,86.36,66,75,10.36,thunderstorm
540,Fairbanks,US,64.8378,-147.7164,16.02,63,100,13.8,light snow
541,Bud,US,39.447,-86.1758,45.16,71,100,13.09,overcast clouds
542,Dwarka,IN,22.2394,68.9678,80.35,71,2,8.84,clear sky
543,Tres Arroyos,AR,-38.3739,-60.2798,68.81,66,100,2.46,overcast clouds
544,Bourail,NC,-21.5667,165.4833,77.43,87,82,7.65,broken clouds
545,Caibarien,CU,22.5206,-79.4669,81.72,72,99,14.97,overcast clouds
546,Wuwei,CN,37.9281,102.6414,56.46,16,0,7.58,clear sky
547,Haysville,US,37.5645,-97.3523,58.71,22,0,21.85,clear sky
548,Havoysund,NO,70.9963,24.6622,34.03,75,100,30.13,overcast clouds
549,Dolinsk,RU,47.35,142.8,33.08,97,100,7.25,light snow
550,Inta,RU,66.0317,60.1659,-1.34,100,87,5.82,overcast clouds
551,Areosa,PT,41.7178,-8.8571,53.92,91,55,3.8,broken clouds
552,Alekseyevsk,RU,57.8406,108.3492,21.25,99,88,0.72,overcast clouds
553,Santa Maria Da Vitoria,BR,-13.3947,-44.1886,83.14,36,0,1.66,clear sky
554,Kamenka,RU,51.3223,42.7678,51.48,74,98,12.97,overcast clouds
555,Liverpool,GB,53.4106,-2.9779,43.83,73,20,5.01,few clouds
556,Shakawe,BW,-18.3667,21.85,68.76,73,18,5.73,few clouds
557,Haines Junction,CA,60.7522,-137.5108,39.15,48,100,10.36,overcast clouds
558,Siguiri,GN,11.6667,-9.5,92.71,9,28,4.25,scattered clouds
559,Madikeri,IN,12.4167,75.7333,65.98,97,100,1.74,overcast clouds
560,Manga,BF,11.6636,-1.0731,97.09,23,31,9.93,scattered clouds
561,Pauini,BR,-7.7136,-66.9764,84.24,74,82,2.64,broken clouds
562,Manturovo,RU,58.3353,44.7619,38.03,91,99,9.17,overcast clouds
563,Ixtapa,MX,20.7,-105.2,76.23,73,40,13.8,scattered clouds
564,Porbandar,IN,21.6422,69.6093,81.97,57,6,9.28,clear sky
565,Goedereede,NL,51.8175,3.9806,44.58,73,99,5.99,overcast clouds
566,Altea,ES,38.5989,-0.0514,69.21,62,100,1.01,overcast clouds
567,Cochabamba,BO,-17.3895,-66.1568,73.15,38,75,4.61,broken clouds
568,Wote,KE,-1.7808,37.6288,66.79,70,4,1.79,clear sky
569,Woodward,US,36.4337,-99.3904,63.63,19,0,21.85,clear sky
570,Itoman,JP,26.1247,127.6694,68.02,78,20,6.91,few clouds
571,Kawalu,ID,-7.3817,108.2082,70.57,93,100,1.86,overcast clouds
572,Diffa,NE,13.3154,12.6113,90.39,8,15,6.42,few clouds
573,Solnechnyy,RU,50.7214,136.6319,20.5,94,99,2.39,light snow
574,Astaneh-Ye Ashrafiyeh,IR,37.2596,49.9444,55.33,66,93,2.59,overcast clouds
575,Zyryanovsk,KZ,49.7386,84.2719,26.8,97,51,1.66,broken clouds
576,Tsabong,BW,-26.0217,22.401,65.95,65,92,16.51,overcast clouds
577,San Cristobal,VE,7.7669,-72.225,78.98,73,98,4.32,overcast clouds
578,Port Washington,US,40.8257,-73.6982,65.12,34,20,13.8,few clouds
579,Chumikan,RU,54.7183,135.315,14.72,96,100,2.44,overcast clouds
580,Powell,US,40.1578,-83.0752,49.86,68,40,8.05,scattered clouds
581,Estelle,US,29.8458,-90.1067,72.0,25,0,16.11,clear sky
582,Bonavista,CA,48.6499,-53.1147,32.76,85,98,9.46,overcast clouds
583,Biltine,TD,14.5333,20.9167,87.55,7,3,9.4,clear sky
584,Washougal,US,45.5826,-122.3534,58.98,51,40,16.11,scattered clouds
585,Ogawara,JP,38.0516,140.7155,41.49,75,0,3.33,clear sky
586,Uyuni,BO,-20.4597,-66.825,60.13,26,94,11.01,overcast clouds
587,Naze,JP,28.3667,129.4833,63.52,68,0,6.87,clear sky
588,Sabzevar,IR,36.2126,57.6819,65.48,24,41,9.22,haze
589,Labuan,MY,5.2767,115.2417,77.36,88,40,6.91,scattered clouds
590,Ivankiv,UA,50.9386,29.8943,42.48,84,49,8.08,scattered clouds
591,Timizart,DZ,36.8,4.2667,53.55,65,0,6.42,clear sky
592,Zhangjiakou,CN,40.81,114.8794,56.37,25,0,5.37,clear sky
593,Balikpapan,ID,-1.2675,116.8289,77.99,89,40,8.05,scattered clouds
594,Kysyl-Syr,RU,63.8986,122.7617,11.71,97,100,3.44,overcast clouds
595,Tecolutla,MX,20.4833,-97.0167,82.26,49,95,14.27,overcast clouds
596,Darnah,LY,32.767,22.6367,60.17,55,0,10.4,clear sky
597,Birao,CF,10.2849,22.7882,85.28,16,2,3.04,clear sky
598,Lagos,NG,6.5833,3.75,81.48,86,100,6.2,overcast clouds
599,Kaeo,NZ,-35.1,173.7833,61.32,89,7,5.91,clear sky
600,Butka,RU,56.7179,63.7866,29.46,98,99,5.19,overcast clouds
601,Rio Grande,BR,-32.035,-52.0986,75.31,73,0,10.33,clear sky
602,Maniitsoq,GL,65.4167,-52.9,19.53,81,90,14.27,overcast clouds
603,Neftegorsk,RU,52.802,51.166,45.34,81,100,11.83,overcast clouds
604,Dongsheng,CN,39.8161,109.9776,51.6,19,0,6.91,clear sky
605,Karratha,AU,-20.7377,116.8463,81.16,52,8,13.35,clear sky
606,Tamandare,BR,-8.7597,-35.1047,78.3,85,25,6.02,scattered clouds
607,Maceio,BR,-9.6658,-35.7353,76.44,94,75,5.75,broken clouds
608,Mopti,ML,14.6667,-4.0,100.44,11,3,9.22,dust
609,Avera,US,33.194,-82.5271,65.71,44,100,17.36,overcast clouds
610,Port Blair,IN,11.6667,92.75,77.04,94,40,2.3,mist
611,Balsas,BR,-7.5325,-46.0356,77.18,83,61,2.35,broken clouds
612,Kihei,US,20.785,-156.4656,80.62,85,40,24.16,scattered clouds
613,Abay,KZ,49.6311,72.8539,32.38,88,5,5.39,clear sky
614,Porto Santo,PT,33.072,-16.3415,59.38,72,20,3.44,few clouds
615,Zyryanka,RU,65.75,150.85,-6.21,92,100,16.98,overcast clouds
616,Albania,AL,41.0,20.0,55.0,77,4,4.18,clear sky
617,Batticaloa,LK,7.7102,81.6924,78.26,84,95,8.16,overcast clouds
618,Urumqi,CN,43.801,87.6005,58.15,51,0,6.71,clear sky
619,Vaitape,PF,-16.5167,-151.75,82.69,73,100,19.04,overcast clouds
620,Port Augusta,AU,-32.5,137.7667,59.52,75,0,2.42,clear sky
621,Progreso,MX,21.2833,-89.6667,78.12,52,100,16.11,overcast clouds
622,Havre-Saint-Pierre,CA,50.2334,-63.5986,34.16,80,100,14.97,overcast clouds
623,Nizhnevartovsk,RU,60.9344,76.5531,10.42,72,0,7.0,clear sky
624,Val-David,CA,46.0334,-74.2159,40.01,94,100,3.56,overcast clouds
625,San Quintin,MX,30.4833,-115.95,79.86,27,89,8.86,overcast clouds
626,Fomboni,KM,-12.28,43.7425,82.54,72,99,8.79,overcast clouds
627,Tikrit,IQ,34.6071,43.6782,86.02,16,100,22.39,overcast clouds
628,Pishin,PK,30.5803,66.9961,68.81,14,0,1.63,clear sky
629,Baiyin,CN,36.5583,104.2081,53.89,17,1,5.7,clear sky
630,Menongue,AO,-14.6585,17.691,63.9,90,75,3.4,light rain
631,Moranbah,AU,-22.0016,148.0466,72.3,82,67,17.02,broken clouds
632,Carupano,VE,10.6678,-63.2585,82.29,68,84,16.26,broken clouds
633,Benguela,AO,-12.5763,13.4055,75.25,91,81,2.91,moderate rain
634,Koyelga,RU,54.6522,60.9049,34.25,94,84,3.44,broken clouds
635,Hasaki,JP,35.7333,140.8333,50.4,68,0,17.78,clear sky
636,Makhu,IN,31.1033,74.9978,78.85,10,0,3.91,clear sky
637,Gamba,GA,-2.65,10.0,77.23,94,82,3.06,broken clouds
638,Patancheru,IN,17.5314,78.265,77.86,39,5,8.05,clear sky
639,Kenai,US,60.5544,-151.2583,34.09,89,100,8.05,mist
640,Safranbolu,TR,41.2508,32.6942,46.44,89,11,1.81,few clouds
641,Pochutla,MX,15.7432,-96.4661,87.82,48,19,9.86,few clouds
642,Tongliao,CN,43.6125,122.2653,49.26,36,37,5.44,scattered clouds
643,Ghazipur,IN,25.5833,83.5667,81.0,14,0,3.67,clear sky
644,Belle Glade,US,26.6845,-80.6676,78.03,36,90,14.03,overcast clouds
645,Rafai,CF,4.95,23.9167,72.54,78,71,1.92,broken clouds
646,Jawhar,SO,2.7809,45.5005,80.56,78,100,11.07,overcast clouds
647,Udachnyy,RU,66.4167,112.4,-7.73,100,99,2.57,overcast clouds
648,Cedar City,US,37.6775,-113.0619,73.4,14,0,4.88,clear sky
649,Vernon,CA,50.2581,-119.2691,61.41,29,98,21.99,overcast clouds
650,Buala,SB,-8.145,159.5921,83.21,76,62,10.94,broken clouds
651,Melo,UY,-32.3667,-54.1833,72.64,70,84,9.08,broken clouds
652,Hurghada,EG,27.2574,33.8129,82.44,26,0,17.27,clear sky
653,Imeni Poliny Osipenko,RU,52.4201,136.4853,17.51,93,100,3.47,overcast clouds
654,Clarence Town,AU,-32.5833,151.7833,66.85,95,25,2.17,scattered clouds
655,San Lorenzo,PY,-25.3333,-57.5333,76.59,83,75,5.01,broken clouds
656,Izhevskoye,RU,54.5567,40.8703,46.4,76,100,15.05,overcast clouds
657,Ilebo,CD,-4.3167,20.5833,71.73,99,95,6.15,moderate rain
658,Timberlake,US,37.3207,-79.2575,62.56,29,75,6.91,broken clouds
659,Jalalabad,AF,34.4265,70.4515,79.45,21,74,5.26,broken clouds
660,Komsomolskiy,UZ,40.4272,71.7189,65.12,45,83,9.22,broken clouds
661,Nishihara,JP,26.1842,127.7558,67.28,81,40,6.91,scattered clouds
662,Pemangkat,ID,1.1667,108.9667,78.24,83,99,2.84,overcast clouds
663,Ambunti,PG,-4.2365,142.8448,73.51,99,100,0.87,overcast clouds
664,Kiruna,SE,67.8557,20.2251,25.72,100,100,17.27,overcast clouds
665,Tulum,MX,20.2167,-87.4667,76.05,64,100,10.92,overcast clouds
666,Ozark,US,37.0209,-93.206,41.81,67,100,3.0,overcast clouds
667,Kousseri,CM,12.0769,15.0306,93.16,13,50,3.44,scattered clouds
668,Tezu,IN,27.9167,96.1667,67.26,81,100,3.33,overcast clouds
669,Henties Bay,NA,-22.116,14.2845,62.26,78,0,4.88,clear sky
670,Taitung,TW,22.7583,121.1444,68.27,79,26,8.77,scattered clouds
671,Ekpoma,NG,6.7421,6.139,74.53,90,80,4.79,moderate rain
672,Kuryk,KZ,43.2,51.65,50.11,87,40,1.79,scattered clouds
673,Seminole,US,28.7086,-81.2081,75.27,40,0,16.11,clear sky
674,Nanakuli,US,21.3906,-158.1547,80.55,57,20,14.97,few clouds
675,San Policarpo,PH,12.1791,125.5072,76.24,83,100,14.56,very heavy rain
676,Phenix City,US,32.471,-85.0008,64.87,31,75,21.85,broken clouds
677,Tandalti,SD,13.0167,31.8667,91.9,26,32,7.38,scattered clouds
678,Nsanje,MW,-16.92,35.262,71.74,99,99,3.29,light rain
679,Sibolga,ID,1.7427,98.7792,76.42,79,93,3.4,overcast clouds
680,Ibra,OM,22.6906,58.5334,80.28,33,93,1.74,overcast clouds
681,Tibati,CM,6.4667,12.6333,80.94,39,100,2.26,overcast clouds
682,Viransehir,TR,37.2353,39.7631,52.0,88,31,4.79,scattered clouds
683,Comodoro Rivadavia,AR,-45.8667,-67.5,57.06,82,20,10.36,few clouds
684,Najran,SA,17.4924,44.1277,72.25,19,0,0.85,clear sky
685,Langsa,ID,4.4683,97.9683,72.99,96,100,2.82,overcast clouds
686,Bhinga,IN,27.7167,81.9333,77.52,21,0,3.78,clear sky
687,Popondetta,PG,-8.7537,148.2534,74.21,95,100,2.13,light rain
688,Vagur,FO,61.4732,-6.8119,37.29,72,100,19.33,overcast clouds
689,Aksaray,TR,38.3726,34.0254,49.57,71,32,4.03,scattered clouds
690,Inhambane,MZ,-23.865,35.3833,77.09,63,100,19.55,overcast clouds
691,Uchaly,RU,54.2996,59.4521,33.78,96,98,4.27,overcast clouds
692,Plettenberg Bay,ZA,-34.0527,23.3716,59.54,76,92,12.06,overcast clouds
693,Randolph,US,35.7001,-79.8164,61.7,33,100,13.8,overcast clouds
694,Ahuimanu,US,21.4447,-157.8378,80.31,69,40,12.66,scattered clouds
695,Diamantino,BR,-14.4086,-56.4461,84.49,68,11,3.56,few clouds
696,Kletskaya,RU,49.3145,43.0584,52.16,76,43,13.44,scattered clouds
697,Isangel,VU,-19.55,169.2667,84.31,84,40,2.3,scattered clouds
698,Luebo,CD,-5.35,21.4167,70.74,99,100,2.91,light rain
699,Ust-Tarka,RU,55.5672,75.705,32.86,88,100,11.32,overcast clouds
700,Faxinal,BR,-24.0003,-51.3194,68.29,96,100,2.75,light rain
